{
  "line_id": "line2",
  "line_name": "2호선",
  "type": "circular",
  "main_loop": [
    {
      "id": "201",
      "name": "시청",
      "line_id": "line2",
      "sequence": 1,
      "latitude": 37.5636,
      "longitude": 126.9770,
      "transfer_lines": ["line1"],
      "prev_station_id": "243",
      "next_station_id": "202",
      "avg_time_to_next": 2
    },
    {
      "id": "202",
      "name": "을지로입구",
      "line_id": "line2",
      "sequence": 2,
      "latitude": 37.5660,
      "longitude": 126.9822,
      "transfer_lines": [],
      "prev_station_id": "201",
      "next_station_id": "203",
      "avg_time_to_next": 1
    },
    {
      "id": "203",
      "name": "을지로3가",
      "line_id": "line2",
      "sequence": 3,
      "latitude": 37.5664,
      "longitude": 126.9920,
      "transfer_lines": ["line3"],
      "prev_station_id": "202",
      "next_station_id": "204",
      "avg_time_to_next": 2
    },
    {
      "id": "204",
      "name": "을지로4가",
      "line_id": "line2",
      "sequence": 4,
      "latitude": 37.5671,
      "longitude": 126.9982,
      "transfer_lines": ["line5"],
      "prev_station_id": "203",
      "next_station_id": "205",
      "avg_time_to_next": 2
    },
    {
      "id": "205",
      "name": "동대문역사문화공원",
      "line_id": "line2",
      "sequence": 5,
      "latitude": 37.5651,
      "longitude": 127.0093,
      "transfer_lines": ["line4", "line5"],
      "prev_station_id": "204",
      "next_station_id": "206",
      "avg_time_to_next": 2
    },
    {
      "id": "206",
      "name": "신당",
      "line_id": "line2",
      "sequence": 6,
      "latitude": 37.5659,
      "longitude": 127.0176,
      "transfer_lines": ["line6"],
      "prev_station_id": "205",
      "next_station_id": "207",
      "avg_time_to_next": 2
    },
    {
      "id": "207",
      "name": "상왕십리",
      "line_id": "line2",
      "sequence": 7,
      "latitude": 37.5648,
      "longitude": 127.0297,
      "transfer_lines": [],
      "prev_station_id": "206",
      "next_station_id": "208",
      "avg_time_to_next": 2
    },
    {
      "id": "208",
      "name": "왕십리",
      "line_id": "line2",
      "sequence": 8,
      "latitude": 37.5614,
      "longitude": 127.0377,
      "transfer_lines": ["line5", "gyeongui_jungang", "suin_bundang"],
      "prev_station_id": "207",
      "next_station_id": "209",
      "avg_time_to_next": 2
    },
    {
      "id": "209",
      "name": "한양대",
      "line_id": "line2",
      "sequence": 9,
      "latitude": 37.5558,
      "longitude": 127.0443,
      "transfer_lines": [],
      "prev_station_id": "208",
      "next_station_id": "210",
      "avg_time_to_next": 2
    },
    {
      "id": "210",
      "name": "뚝섬",
      "line_id": "line2",
      "sequence": 10,
      "latitude": 37.5474,
      "longitude": 127.0473,
      "transfer_lines": [],
      "prev_station_id": "209",
      "next_station_id": "211",
      "avg_time_to_next": 2
    },
    {
      "id": "211",
      "name": "성수",
      "line_id": "line2",
      "sequence": 11,
      "latitude": 37.5446,
      "longitude": 127.0558,
      "transfer_lines": [],
      "prev_station_id": "210",
      "next_station_id": "212",
      "avg_time_to_next": 2,
      "branch_point": "seongsu_branch"
    },
    {
      "id": "212",
      "name": "건대입구",
      "line_id": "line2",
      "sequence": 12,
      "latitude": 37.5402,
      "longitude": 127.0699,
      "transfer_lines": ["line7"],
      "prev_station_id": "211",
      "next_station_id": "213",
      "avg_time_to_next": 2
    },
    {
      "id": "213",
      "name": "구의",
      "line_id": "line2",
      "sequence": 13,
      "latitude": 37.5354,
      "longitude": 127.0864,
      "transfer_lines": [],
      "prev_station_id": "212",
      "next_station_id": "214",
      "avg_time_to_next": 2
    },
    {
      "id": "214",
      "name": "강변",
      "line_id": "line2",
      "sequence": 14,
      "latitude": 37.5349,
      "longitude": 127.0948,
      "transfer_lines": [],
      "prev_station_id": "213",
      "next_station_id": "215",
      "avg_time_to_next": 2
    },
    {
      "id": "215",
      "name": "잠실나루",
      "line_id": "line2",
      "sequence": 15,
      "latitude": 37.5214,
      "longitude": 127.1038,
      "transfer_lines": [],
      "prev_station_id": "214",
      "next_station_id": "216",
      "avg_time_to_next": 2
    },
    {
      "id": "216",
      "name": "잠실",
      "line_id": "line2",
      "sequence": 16,
      "latitude": 37.5133,
      "longitude": 127.1001,
      "transfer_lines": ["line8"],
      "prev_station_id": "215",
      "next_station_id": "217",
      "avg_time_to_next": 2
    },
    {
      "id": "217",
      "name": "잠실새내",
      "line_id": "line2",
      "sequence": 17,
      "latitude": 37.5115,
      "longitude": 127.0865,
      "transfer_lines": [],
      "prev_station_id": "216",
      "next_station_id": "218",
      "avg_time_to_next": 2
    },
    {
      "id": "218",
      "name": "종합운동장",
      "line_id": "line2",
      "sequence": 18,
      "latitude": 37.5107,
      "longitude": 127.0738,
      "transfer_lines": ["line9"],
      "prev_station_id": "217",
      "next_station_id": "219",
      "avg_time_to_next": 2
    },
    {
      "id": "219",
      "name": "삼성",
      "line_id": "line2",
      "sequence": 19,
      "latitude": 37.5089,
      "longitude": 127.0637,
      "transfer_lines": [],
      "prev_station_id": "218",
      "next_station_id": "220",
      "avg_time_to_next": 2
    },
    {
      "id": "220",
      "name": "선릉",
      "line_id": "line2",
      "sequence": 20,
      "latitude": 37.5046,
      "longitude": 127.0490,
      "transfer_lines": ["suin_bundang"],
      "prev_station_id": "219",
      "next_station_id": "221",
      "avg_time_to_next": 2
    },
    {
      "id": "221",
      "name": "역삼",
      "line_id": "line2",
      "sequence": 21,
      "latitude": 37.5007,
      "longitude": 127.0365,
      "transfer_lines": [],
      "prev_station_id": "220",
      "next_station_id": "222",
      "avg_time_to_next": 2
    },
    {
      "id": "222",
      "name": "강남",
      "line_id": "line2",
      "sequence": 22,
      "latitude": 37.4979,
      "longitude": 127.0276,
      "transfer_lines": ["shinbundang"],
      "prev_station_id": "221",
      "next_station_id": "223",
      "avg_time_to_next": 2
    },
    {
      "id": "223",
      "name": "교대",
      "line_id": "line2",
      "sequence": 23,
      "latitude": 37.4934,
      "longitude": 127.0144,
      "transfer_lines": ["line3"],
      "prev_station_id": "222",
      "next_station_id": "224",
      "avg_time_to_next": 2
    },
    {
      "id": "224",
      "name": "서초",
      "line_id": "line2",
      "sequence": 24,
      "latitude": 37.4919,
      "longitude": 127.0077,
      "transfer_lines": [],
      "prev_station_id": "223",
      "next_station_id": "225",
      "avg_time_to_next": 2
    },
    {
      "id": "225",
      "name": "방배",
      "line_id": "line2",
      "sequence": 25,
      "latitude": 37.4816,
      "longitude": 126.9976,
      "transfer_lines": [],
      "prev_station_id": "224",
      "next_station_id": "226",
      "avg_time_to_next": 2
    },
    {
      "id": "226",
      "name": "사당",
      "line_id": "line2",
      "sequence": 26,
      "latitude": 37.4765,
      "longitude": 126.9816,
      "transfer_lines": ["line4"],
      "prev_station_id": "225",
      "next_station_id": "227",
      "avg_time_to_next": 2
    },
    {
      "id": "227",
      "name": "낙성대",
      "line_id": "line2",
      "sequence": 27,
      "latitude": 37.4767,
      "longitude": 126.9636,
      "transfer_lines": [],
      "prev_station_id": "226",
      "next_station_id": "228",
      "avg_time_to_next": 2
    },
    {
      "id": "228",
      "name": "서울대입구",
      "line_id": "line2",
      "sequence": 28,
      "latitude": 37.4812,
      "longitude": 126.9527,
      "transfer_lines": [],
      "prev_station_id": "227",
      "next_station_id": "229",
      "avg_time_to_next": 2
    },
    {
      "id": "229",
      "name": "봉천",
      "line_id": "line2",
      "sequence": 29,
      "latitude": 37.4824,
      "longitude": 126.9418,
      "transfer_lines": [],
      "prev_station_id": "228",
      "next_station_id": "230",
      "avg_time_to_next": 2
    },
    {
      "id": "230",
      "name": "신림",
      "line_id": "line2",
      "sequence": 30,
      "latitude": 37.4844,
      "longitude": 126.9297,
      "transfer_lines": ["shinrim"],
      "prev_station_id": "229",
      "next_station_id": "231",
      "avg_time_to_next": 2
    },
    {
      "id": "231",
      "name": "신대방",
      "line_id": "line2",
      "sequence": 31,
      "latitude": 37.4878,
      "longitude": 126.9133,
      "transfer_lines": [],
      "prev_station_id": "230",
      "next_station_id": "232",
      "avg_time_to_next": 2
    },
    {
      "id": "232",
      "name": "구로디지털단지",
      "line_id": "line2",
      "sequence": 32,
      "latitude": 37.4854,
      "longitude": 126.9015,
      "transfer_lines": [],
      "prev_station_id": "231",
      "next_station_id": "233",
      "avg_time_to_next": 2
    },
    {
      "id": "233",
      "name": "대림",
      "line_id": "line2",
      "sequence": 33,
      "latitude": 37.4933,
      "longitude": 126.8959,
      "transfer_lines": ["line7"],
      "prev_station_id": "232",
      "next_station_id": "234",
      "avg_time_to_next": 2,
      "branch_point": "sinjeong_branch"
    },
    {
      "id": "234",
      "name": "신도림",
      "line_id": "line2",
      "sequence": 34,
      "latitude": 37.5089,
      "longitude": 126.8912,
      "transfer_lines": ["line1"],
      "prev_station_id": "233",
      "next_station_id": "235",
      "avg_time_to_next": 2
    },
    {
      "id": "235",
      "name": "문래",
      "line_id": "line2",
      "sequence": 35,
      "latitude": 37.5179,
      "longitude": 126.8965,
      "transfer_lines": [],
      "prev_station_id": "234",
      "next_station_id": "236",
      "avg_time_to_next": 2
    },
    {
      "id": "236",
      "name": "영등포구청",
      "line_id": "line2",
      "sequence": 36,
      "latitude": 37.5254,
      "longitude": 126.8964,
      "transfer_lines": ["line5"],
      "prev_station_id": "235",
      "next_station_id": "237",
      "avg_time_to_next": 2
    },
    {
      "id": "237",
      "name": "당산",
      "line_id": "line2",
      "sequence": 37,
      "latitude": 37.5346,
      "longitude": 126.9027,
      "transfer_lines": ["line9"],
      "prev_station_id": "236",
      "next_station_id": "238",
      "avg_time_to_next": 3
    },
    {
      "id": "238",
      "name": "합정",
      "line_id": "line2",
      "sequence": 38,
      "latitude": 37.5496,
      "longitude": 126.9140,
      "transfer_lines": ["line6"],
      "prev_station_id": "237",
      "next_station_id": "239",
      "avg_time_to_next": 2
    },
    {
      "id": "239",
      "name": "홍대입구",
      "line_id": "line2",
      "sequence": 39,
      "latitude": 37.5571,
      "longitude": 126.9260,
      "transfer_lines": ["airport", "gyeongui_jungang"],
      "prev_station_id": "238",
      "next_station_id": "240",
      "avg_time_to_next": 2
    },
    {
      "id": "240",
      "name": "신촌",
      "line_id": "line2",
      "sequence": 40,
      "latitude": 37.5553,
      "longitude": 126.9366,
      "transfer_lines": [],
      "prev_station_id": "239",
      "next_station_id": "241",
      "avg_time_to_next": 2
    },
    {
      "id": "241",
      "name": "이대",
      "line_id": "line2",
      "sequence": 41,
      "latitude": 37.5569,
      "longitude": 126.9463,
      "transfer_lines": [],
      "prev_station_id": "240",
      "next_station_id": "242",
      "avg_time_to_next": 2
    },
    {
      "id": "242",
      "name": "아현",
      "line_id": "line2",
      "sequence": 42,
      "latitude": 37.5575,
      "longitude": 126.9565,
      "transfer_lines": [],
      "prev_station_id": "241",
      "next_station_id": "243",
      "avg_time_to_next": 2
    },
    {
      "id": "243",
      "name": "충정로",
      "line_id": "line2",
      "sequence": 43,
      "latitude": 37.5604,
      "longitude": 126.9636,
      "transfer_lines": ["line5"],
      "prev_station_id": "242",
      "next_station_id": "201",
      "avg_time_to_next": 2
    }
  ],
  "branches": {
    "seongsu_branch": {
      "name": "성수지선",
      "branch_from": "211",
      "stations": [
        {
          "id": "211-1",
          "name": "용답",
          "line_id": "line2",
          "sequence": 1,
          "latitude": 37.5705,
          "longitude": 127.0572,
          "transfer_lines": [],
          "prev_station_id": "211",
          "next_station_id": "211-2",
          "avg_time_to_next": 2
        },
        {
          "id": "211-2",
          "name": "신답",
          "line_id": "line2",
          "sequence": 2,
          "latitude": 37.5751,
          "longitude": 127.0547,
          "transfer_lines": [],
          "prev_station_id": "211-1",
          "next_station_id": "211-3",
          "avg_time_to_next": 2
        },
        {
          "id": "211-3",
          "name": "용두",
          "line_id": "line2",
          "sequence": 3,
          "latitude": 37.5745,
          "longitude": 127.0440,
          "transfer_lines": [],
          "prev_station_id": "211-2",
          "next_station_id": "211-4",
          "avg_time_to_next": 2
        },
        {
          "id": "211-4",
          "name": "신설동",
          "line_id": "line2",
          "sequence": 4,
          "latitude": 37.5761,
          "longitude": 127.0249,
          "transfer_lines": ["line1", "ui_sinseol"],
          "prev_station_id": "211-3",
          "next_station_id": null,
          "avg_time_to_next": 0
        }
      ]
    },
    "sinjeong_branch": {
      "name": "신정지선",
      "branch_from": "233",
      "stations": [
        {
          "id": "233-1",
          "name": "도림천",
          "line_id": "line2",
          "sequence": 1,
          "latitude": 37.5091,
          "longitude": 126.8828,
          "transfer_lines": [],
          "prev_station_id": "233",
          "next_station_id": "233-2",
          "avg_time_to_next": 2
        },
        {
          "id": "233-2",
          "name": "양천구청",
          "line_id": "line2",
          "sequence": 2,
          "latitude": 37.5168,
          "longitude": 126.8660,
          "transfer_lines": [],
          "prev_station_id": "233-1",
          "next_station_id": "233-3",
          "avg_time_to_next": 2
        },
        {
          "id": "233-3",
          "name": "신정네거리",
          "line_id": "line2",
          "sequence": 3,
          "latitude": 37.5167,
          "longitude": 126.8560,
          "transfer_lines": [],
          "prev_station_id": "233-2",
          "next_station_id": "233-4",
          "avg_time_to_next": 2
        },
        {
          "id": "233-4",
          "name": "까치산",
          "line_id": "line2",
          "sequence": 4,
          "latitude": 37.5165,
          "longitude": 126.8474,
          "transfer_lines": ["line5"],
          "prev_station_id": "233-3",
          "next_station_id": null,
          "avg_time_to_next": 0
        }
      ]
    }
  }
}
